City_ID,City,Country,Lat,Lng,Max Temp,Humidity,Cloudiness,Wind Speed,Weather description
0,Olinda,BR,-8.0089,-34.8553,78.53,78,75,12.66,broken clouds
1,Punta Arenas,CL,-53.15,-70.9167,33.91,86,0,6.91,clear sky
2,Iracoubo,GF,5.4802,-53.2011,84.29,68,30,11.07,scattered clouds
3,Bethel,US,41.3712,-73.414,68.56,88,19,3.0,few clouds
4,Meulaboh,ID,4.1363,96.1285,78.44,77,100,5.17,overcast clouds
5,Kavieng,PG,-2.5744,150.7967,82.11,74,88,6.96,overcast clouds
6,Vyartsilya,RU,62.1764,30.693,56.61,100,55,4.63,broken clouds
7,Albany,US,42.6001,-73.9662,67.73,93,88,3.49,overcast clouds
8,Mataura,NZ,-46.1927,168.8643,46.47,89,99,4.07,overcast clouds
9,Khatanga,RU,71.9667,102.5,26.65,80,9,8.77,clear sky
10,Alofi,NU,-19.0595,-169.9187,73.29,94,1,6.91,clear sky
11,Avarua,CK,-21.2078,-159.775,71.65,94,40,5.75,scattered clouds
12,Ushuaia,AR,-54.8,-68.3,37.06,75,0,8.05,clear sky
13,Georgetown,MY,5.4112,100.3354,83.89,78,20,5.01,few clouds
14,Padang,ID,-0.9492,100.3543,73.45,88,100,3.87,moderate rain
15,Arraial Do Cabo,BR,-22.9661,-42.0278,67.96,77,40,8.05,scattered clouds
16,Geraldton,AU,-28.7667,114.6,57.61,88,40,6.91,scattered clouds
17,Constitucion,CL,-35.3333,-72.4167,47.46,70,2,8.81,clear sky
18,Bengkulu,ID,-3.8004,102.2655,76.37,89,100,7.23,overcast clouds
19,Kankon,IN,15.0167,74.0167,76.8,85,92,5.91,overcast clouds
20,Mount Gambier,AU,-37.8333,140.7667,47.71,78,92,8.43,overcast clouds
21,Barrow,US,71.2906,-156.7887,33.82,93,100,14.97,mist
22,Saskylakh,RU,71.9167,114.0833,28.92,95,67,7.4,broken clouds
23,Mahebourg,MU,-20.4081,57.7,73.69,64,75,16.11,broken clouds
24,Rikitea,PF,-23.1203,-134.9692,71.37,64,86,17.87,overcast clouds
25,Atuona,PF,-9.8,-139.0333,76.78,72,85,23.94,overcast clouds
26,Qaanaaq,GL,77.484,-69.3632,24.03,56,0,7.47,clear sky
27,Manicore,BR,-5.8092,-61.3003,88.61,52,7,4.0,moderate rain
28,Pacific Grove,US,36.6177,-121.9166,62.42,74,20,8.05,light rain
29,Puerto Ayora,EC,-0.7393,-90.3518,66.54,91,97,7.0,overcast clouds
30,Gorin,RU,51.1983,136.6669,51.84,99,78,5.73,broken clouds
31,Lebu,CL,-37.6167,-73.65,45.86,61,8,3.44,clear sky
32,Zhanaozen,KZ,43.3,52.8,86.4,20,1,12.08,clear sky
33,Hermanus,ZA,-34.4187,19.2345,59.81,66,95,16.93,light rain
34,Carnarvon,AU,-24.8667,113.6333,66.6,67,8,21.5,clear sky
35,Souillac,MU,-20.5167,57.5167,73.78,64,75,16.11,broken clouds
36,Busselton,AU,-33.65,115.3333,54.32,78,100,8.72,overcast clouds
37,Pecos,US,31.4229,-103.4932,71.31,83,0,5.75,clear sky
38,Kendari,ID,-3.945,122.4989,76.68,91,99,2.82,overcast clouds
39,Hilo,US,19.7297,-155.09,78.28,89,100,8.05,overcast clouds
40,Samarai,PG,-10.6167,150.6667,81.64,82,97,11.68,overcast clouds
41,Bowen,AU,-20.0167,148.2333,73.74,90,1,6.78,clear sky
42,Alice Springs,AU,-23.7,133.8833,65.75,30,80,9.22,broken clouds
43,Bombay,IN,19.0144,72.8479,80.58,89,75,3.44,haze
44,Sinnamary,GF,5.3833,-52.95,84.58,65,14,11.59,few clouds
45,Klyuchi,RU,52.2667,79.1667,55.67,34,0,7.31,clear sky
46,Presidencia Roque Saenz Pena,AR,-26.7852,-60.4388,80.01,35,3,14.83,clear sky
47,Bredasdorp,ZA,-34.5322,20.0403,56.71,73,91,16.31,light rain
48,Durango,MX,24.8333,-104.8333,57.04,82,100,1.34,overcast clouds
49,Fort-Shevchenko,KZ,44.5086,50.263,77.5,50,0,18.54,clear sky
50,Mattru,SL,7.6244,-11.8332,73.02,98,100,4.03,moderate rain
51,Bluff,NZ,-46.6,168.3333,46.8,83,100,8.48,overcast clouds
52,Ketchikan,US,55.3422,-131.6461,48.78,90,46,6.31,scattered clouds
53,Oussouye,SN,12.485,-16.5469,79.52,84,100,3.96,moderate rain
54,Deniliquin,AU,-35.5333,144.9667,46.36,94,31,11.07,scattered clouds
55,Gazli,UZ,40.1333,63.45,89.26,13,0,5.68,clear sky
56,Villaviciosa,ES,43.4813,-5.4357,73.62,62,100,10.71,overcast clouds
57,Ribeira Grande,PT,38.5167,-28.7,77.4,83,20,12.66,few clouds
58,Palimbang,PH,6.2106,124.1894,79.9,81,100,3.27,overcast clouds
59,Muroto,JP,33.2833,134.15,82.18,88,100,38.21,light rain
60,Upernavik,GL,72.7868,-56.1549,37.81,73,100,9.86,overcast clouds
61,Bairiki,KI,1.3292,172.9752,82.4,78,20,8.05,few clouds
62,Sesimbra,PT,38.4445,-9.1015,86.31,56,44,3.29,scattered clouds
63,Dingle,PH,10.9995,122.6711,77.23,87,100,5.64,heavy intensity rain
64,Ponta Do Sol,PT,32.6667,-17.1,79.72,83,28,3.83,light rain
65,Chuy,UY,-33.6971,-53.4616,62.46,67,100,14.7,overcast clouds
66,East London,ZA,-33.0153,27.9116,61.74,94,100,14.97,light intensity drizzle
67,Evensk,RU,61.95,159.2333,39.07,51,0,8.1,clear sky
68,Hobart,AU,-42.8794,147.3294,51.66,81,40,11.5,scattered clouds
69,New Norfolk,AU,-42.7826,147.0587,51.3,80,98,1.99,light rain
70,Longyearbyen,SJ,78.2186,15.6401,31.84,74,75,9.22,broken clouds
71,Kapaa,US,22.0752,-159.319,74.1,85,99,8.32,overcast clouds
72,Taltal,CL,-25.4,-70.4833,59.58,62,0,4.92,clear sky
73,Clyde River,CA,70.4692,-68.5914,34.03,93,100,4.61,overcast clouds
74,Ucluelet,CA,48.9329,-125.5528,53.98,59,1,4.74,clear sky
75,Namatanai,PG,-3.6667,152.4333,79.41,84,87,7.2,light rain
76,Port Alfred,ZA,-33.5906,26.891,62.19,86,100,5.01,overcast clouds
77,Torbay,CA,47.6666,-52.7314,60.58,71,90,11.01,overcast clouds
78,Faanui,PF,-16.4833,-151.75,77.13,75,1,18.84,light rain
79,Esperance,AU,-33.8667,121.9,53.96,88,30,8.16,scattered clouds
80,Sitka,US,57.0531,-135.33,55.29,88,100,0.0,light rain
81,Coahuayana,MX,18.7333,-103.6833,74.14,94,98,4.65,overcast clouds
82,Leningradskiy,RU,69.3833,178.4167,33.08,97,100,22.44,light snow
83,Jamestown,US,42.097,-79.2353,70.52,68,48,3.0,scattered clouds
84,Lai,TD,9.3952,16.2989,79.18,78,100,2.95,light rain
85,Taksimo,RU,56.3444,114.8794,30.83,66,23,2.77,few clouds
86,Nuzvid,IN,16.7833,80.85,81.45,80,100,6.58,overcast clouds
87,Narsaq,GL,60.9167,-46.05,57.42,62,94,6.64,overcast clouds
88,Bitung,ID,1.4451,125.1824,77.85,86,100,7.47,overcast clouds
89,Kodarma,IN,24.4667,85.6,78.71,87,100,3.78,overcast clouds
90,Norman Wells,CA,65.282,-126.8329,46.89,89,100,7.67,light rain
91,Asau,RO,46.4333,26.4,63.52,74,96,19.26,overcast clouds
92,Gimbi,ET,9.1667,35.8333,67.73,76,85,1.72,light rain
93,Lasa,IT,46.6166,10.7002,64.69,41,36,6.26,scattered clouds
94,Zapolyarnyy,RU,69.4154,30.8136,45.68,97,100,13.4,overcast clouds
95,Kodinsk,RU,58.6881,99.1844,46.04,93,100,2.82,overcast clouds
96,Puerto Madryn,AR,-42.7692,-65.0385,46.99,55,100,19.44,overcast clouds
97,San Cristobal,VE,7.7669,-72.225,76.03,65,83,4.0,broken clouds
98,Gawler,AU,-34.6,138.7333,53.51,88,55,0.22,broken clouds
99,Anadyr,RU,64.75,177.4833,35.01,93,100,16.44,overcast clouds
100,Butaritari,KI,3.0707,172.7902,81.66,77,8,13.94,light rain
101,Kedrovyy,RU,56.1667,91.8167,45.01,72,51,3.74,broken clouds
102,Frutal,BR,-20.0247,-48.9406,79.59,48,0,8.28,clear sky
103,Emporia,US,38.4039,-96.1817,72.37,86,0,16.35,clear sky
104,Lewisporte,CA,49.2499,-55.0482,49.71,84,93,11.07,overcast clouds
105,Tiksi,RU,71.6872,128.8694,33.03,72,94,3.04,overcast clouds
106,Solnechnyy,RU,50.7214,136.6319,51.58,99,100,4.45,overcast clouds
107,Jaque,PA,7.5175,-78.1703,75.96,94,100,6.91,moderate rain
108,Ilulissat,GL,69.2167,-51.1,42.82,93,100,5.75,light rain
109,Nikolskoye,RU,59.7035,30.7861,58.91,76,100,3.8,overcast clouds
110,Klaksvik,FO,62.2266,-6.589,52.72,68,97,6.71,overcast clouds
111,Beroroha,MG,-21.6667,45.1667,85.26,30,40,8.43,scattered clouds
112,Moura,PT,38.1401,-7.4486,87.42,33,64,1.88,broken clouds
113,Kahului,US,20.8947,-156.47,78.84,86,39,1.99,scattered clouds
114,Port Blair,IN,11.6667,92.75,81.18,81,100,16.8,overcast clouds
115,Niquero,CU,20.0431,-77.5828,81.07,78,1,6.31,clear sky
116,Visby,SE,57.6409,18.296,62.06,77,20,10.36,few clouds
117,Nakambala,ZM,-15.8324,27.7799,92.91,13,47,3.33,scattered clouds
118,Cabo San Lucas,MX,22.8909,-109.9124,83.52,70,89,3.56,overcast clouds
119,Simao,CN,22.7886,100.9748,70.5,80,100,2.62,overcast clouds
120,Jalu,LY,29.0331,21.5482,97.92,10,0,5.84,clear sky
121,Turukhansk,RU,65.8167,87.9833,48.29,77,100,10.13,overcast clouds
122,Atar,MR,20.5169,-13.0499,92.97,24,10,6.85,clear sky
123,Ligayan,PH,4.6533,119.4706,84.63,70,100,8.32,overcast clouds
124,Pevek,RU,69.7008,170.3133,32.59,93,100,20.24,overcast clouds
125,Ust-Omchug,RU,61.15,149.6333,37.85,59,100,5.41,overcast clouds
126,Vaini,TO,-21.2,-175.2,73.87,79,88,21.41,overcast clouds
127,Tilichiki,RU,60.4667,166.1,35.62,70,43,7.05,scattered clouds
128,Santa Isabel Do Rio Negro,BR,-0.4139,-65.0192,82.81,70,100,0.96,overcast clouds
129,Cherskiy,RU,68.75,161.3,32.63,68,93,8.05,overcast clouds
130,Tuatapere,NZ,-46.1333,167.6833,47.8,83,100,5.55,overcast clouds
131,Richards Bay,ZA,-28.783,32.0377,75.74,68,84,8.43,broken clouds
132,Tulagi,SB,-9.0996,160.1476,83.46,76,100,25.19,overcast clouds
133,Mandera,KE,3.9366,41.867,96.1,25,39,16.69,scattered clouds
134,Tucumcari,US,35.1717,-103.725,66.04,77,0,6.91,clear sky
135,Tuktoyaktuk,CA,69.4541,-133.0374,43.14,81,100,15.93,overcast clouds
136,Plouzane,FR,48.3833,-4.6167,64.45,58,20,8.05,few clouds
137,Korla,CN,41.7597,86.1469,77.83,14,100,5.64,overcast clouds
138,Dicabisagan,PH,17.0818,122.4157,78.66,88,100,2.17,overcast clouds
139,Port Keats,AU,-14.25,129.55,77.83,84,14,6.02,few clouds
140,Kaitangata,NZ,-46.2817,169.8464,43.54,94,100,6.73,overcast clouds
141,Am Timan,TD,11.0297,20.2827,79.18,74,91,8.77,overcast clouds
142,Mackenzie,CA,55.2999,-123.1698,46.62,93,100,6.91,overcast clouds
143,Joaima,BR,-16.6542,-41.0306,65.26,76,100,3.51,overcast clouds
144,Port Lincoln,AU,-34.7333,135.8667,50.41,70,97,4.23,overcast clouds
145,Luderitz,NA,-26.6481,15.1594,62.17,63,0,30.71,clear sky
146,Saint George,US,37.1041,-113.5841,70.25,48,0,12.66,clear sky
147,Marsh Harbour,BS,26.5412,-77.0636,82.99,72,100,12.88,overcast clouds
148,Provideniya,RU,64.3833,-173.3,42.6,88,100,6.64,overcast clouds
149,Dieppe,FR,49.75,1.1667,62.78,52,74,15.12,broken clouds
150,Huarmey,PE,-10.0681,-78.1522,62.37,88,84,6.73,broken clouds
151,San Quintin,MX,30.4833,-115.95,65.64,82,2,7.72,clear sky
152,Cape Town,ZA,-33.9258,18.4232,63.27,56,56,11.01,broken clouds
153,Corinto,GR,37.9407,22.9573,85.89,37,0,18.43,clear sky
154,Jianhu,CN,29.9799,120.5712,80.55,86,23,3.87,few clouds
155,Port Elizabeth,ZA,-33.918,25.5701,62.1,91,75,11.5,light rain
156,Ayr,GB,55.4627,-4.6339,62.51,72,40,12.66,scattered clouds
157,Victor Harbor,AU,-35.5667,138.6167,51.01,87,99,9.15,overcast clouds
158,Yumbing,PH,9.2393,124.6578,82.58,77,100,5.77,overcast clouds
159,Vao,NC,-22.6667,167.4833,72.68,80,2,16.51,clear sky
160,Aguie,NE,13.506,7.7786,87.98,45,100,4.12,overcast clouds
161,Galle,LK,6.0367,80.217,80.11,82,100,10.02,overcast clouds
162,Hofn,IS,64.2539,-15.2082,45.66,74,37,0.96,scattered clouds
163,Kananga,CD,-5.8958,22.4178,85.64,45,100,4.94,overcast clouds
164,Chicama,PE,-7.8447,-79.1469,64.53,82,62,4.23,broken clouds
165,Flinders,AU,-34.5833,150.8552,59.18,62,0,4.0,clear sky
166,Araguacu,BR,-12.9306,-49.8264,93.42,32,84,5.61,broken clouds
167,Westlock,CA,54.1502,-113.8688,46.11,86,92,15.57,light rain
168,Carlyle,US,38.6103,-89.3726,70.2,84,47,3.0,scattered clouds
169,Half Moon Bay,US,37.4636,-122.4286,64.62,79,75,16.11,light rain
170,Yenagoa,NG,4.9247,6.2642,83.75,67,93,8.19,moderate rain
171,Gorshechnoye,RU,51.5244,38.0365,70.92,76,17,18.81,light rain
172,Dikson,RU,73.5069,80.5464,31.78,80,18,20.62,few clouds
173,Berlevag,NO,70.8578,29.0864,46.35,93,100,17.27,light rain
174,Bokoro,TD,12.3807,17.0568,81.97,64,100,10.54,overcast clouds
175,Mar Del Plata,AR,-38.0023,-57.5575,55.94,94,100,11.99,overcast clouds
176,Tifton,US,31.4505,-83.5085,69.76,91,0,10.42,clear sky
177,Aden,YE,12.7794,45.0367,90.41,68,14,12.28,few clouds
178,Codrington,AU,-38.2667,141.9667,49.12,67,100,16.91,overcast clouds
179,Cairns,AU,-16.9167,145.7667,78.75,89,75,5.75,broken clouds
180,Airai,TL,-8.9266,125.4092,61.41,66,91,2.1,overcast clouds
181,Touros,BR,-5.1989,-35.4608,83.21,65,58,14.99,broken clouds
182,Kirakira,SB,-10.4544,161.9205,80.37,83,100,11.72,overcast clouds
183,Cienfuegos,CU,22.1461,-80.4356,80.74,89,20,3.44,few clouds
184,Mala,PE,-12.6581,-76.6308,63.97,77,97,4.36,overcast clouds
185,Xifeng,CN,42.7372,124.7222,53.6,68,0,2.66,clear sky
186,Saint-Philippe,RE,-21.3585,55.7679,74.79,79,36,14.36,light rain
187,Araci,BR,-11.3333,-38.9667,82.36,45,16,10.02,few clouds
188,Riyadh,SA,24.6877,46.7219,104.14,9,1,10.56,clear sky
189,Varazze,IT,44.3595,8.5741,76.84,63,2,5.99,clear sky
190,Bahia Blanca,AR,-38.7196,-62.2724,54.46,89,100,10.33,overcast clouds
191,Barsovo,RU,61.1667,73.1667,48.33,91,100,16.08,light rain
192,Maragogi,BR,-9.0122,-35.2225,80.38,69,51,10.8,broken clouds
193,Altay,CN,47.8667,88.1167,53.58,31,0,3.0,clear sky
194,Floro,NO,61.5996,5.0328,57.27,67,40,14.97,scattered clouds
195,Puqi,CN,29.7167,113.8833,78.48,53,3,3.76,clear sky
196,Bontang,ID,0.1333,117.5,81.59,82,15,5.39,few clouds
197,Havoysund,NO,70.9963,24.6622,44.83,90,100,22.28,overcast clouds
198,Iberia,US,29.9502,-91.7507,77.05,88,0,4.61,clear sky
199,Urucara,BR,-2.5364,-57.76,91.67,41,19,5.28,few clouds
200,Benguela,AO,-12.5763,13.4055,77.45,63,5,11.18,clear sky
201,Puerto Del Rosario,ES,28.5004,-13.8627,85.75,48,40,13.8,scattered clouds
202,Itarema,BR,-2.9248,-39.9167,86.59,57,43,16.71,scattered clouds
203,Celestun,MX,20.8667,-90.4,77.34,86,5,7.58,clear sky
204,Hami,CN,42.8,93.45,72.27,13,100,2.77,overcast clouds
205,Concepcion,CL,-36.827,-73.0498,45.28,65,2,4.56,clear sky
206,Kavaratti,IN,10.5669,72.642,81.68,77,87,12.68,overcast clouds
207,Esik,KZ,43.3552,77.4525,71.02,34,62,2.01,broken clouds
208,Hamilton,US,39.1834,-84.5333,67.98,90,40,1.01,fog
209,Boffa,GN,10.1667,-14.0333,83.5,78,99,4.41,light rain
210,Phalaborwa,ZA,-23.943,31.1411,93.56,14,0,7.14,clear sky
211,Victoria,HK,22.2855,114.1577,86.38,77,61,5.99,broken clouds
212,Zyryanka,RU,65.75,150.85,38.46,54,17,6.33,few clouds
213,Chapais,CA,49.7834,-74.8492,42.84,50,100,8.57,overcast clouds
214,Tingo Maria,PE,-9.2895,-76.0088,73.29,81,15,0.72,few clouds
215,Katobu,ID,-4.9408,122.5276,76.69,86,99,5.68,overcast clouds
216,Bonthe,SL,7.5264,-12.505,73.98,96,100,8.41,heavy intensity rain
217,Gat,IL,31.61,34.7642,86.4,100,3,13.96,clear sky
218,Andenes,NO,69.3143,16.1194,49.93,93,75,23.02,light intensity drizzle
219,Jinka,ET,5.65,36.65,83.61,31,89,2.06,overcast clouds
220,Tommot,RU,58.9564,126.2925,30.94,82,100,9.48,overcast clouds
221,Angoram,PG,-4.0625,144.0661,75.11,93,100,0.36,overcast clouds
222,Kloulklubed,PW,7.0419,134.2556,80.44,82,100,18.41,moderate rain
223,Omboue,GA,-1.5746,9.2618,79.16,71,100,9.15,overcast clouds
224,Aromashevo,RU,56.8602,68.6375,60.39,39,100,10.51,overcast clouds
225,Buta,CD,2.7858,24.73,80.76,67,94,3.8,overcast clouds
226,Jiayuguan,CN,39.8167,98.3,69.57,32,100,8.52,overcast clouds
227,Kindu,CD,-2.95,25.95,72.93,92,100,2.77,overcast clouds
228,Tasiilaq,GL,65.6145,-37.6368,42.96,95,100,16.96,moderate rain
229,Svetlogorsk,BY,52.6333,29.7333,49.21,94,100,19.37,overcast clouds
230,Tahe,CN,52.3333,124.7333,35.91,66,28,15.93,scattered clouds
231,Shamkhal,RU,43.0596,47.3373,77.02,54,49,18.14,scattered clouds
232,Abu Dhabi,AE,24.4667,54.3667,95.11,55,0,10.36,clear sky
233,Talcahuano,CL,-36.7167,-73.1167,40.68,81,0,5.75,clear sky
234,Skegness,GB,53.1436,0.3363,62.35,56,63,19.53,broken clouds
235,Cotonou,BJ,6.3654,2.4183,79.97,78,51,14.05,light rain
236,Crotone,IT,39.0851,17.1178,78.19,40,34,12.5,scattered clouds
237,Sulangan,PH,11.1373,123.7228,84.99,71,91,2.64,heavy intensity rain
238,Thinadhoo,MV,0.5333,72.9333,83.1,69,82,7.34,broken clouds
239,Okha,RU,53.5739,142.9478,51.62,98,100,18.9,light rain
240,Thompson,CA,55.7435,-97.8558,51.67,89,100,4.09,overcast clouds
241,Nurota,UZ,40.5614,65.6886,84.63,16,0,13.2,clear sky
242,Portland,US,45.5234,-122.6762,58.98,82,75,3.0,broken clouds
243,Mount Isa,AU,-20.7333,139.5,73.17,28,0,4.61,clear sky
244,Orbetello,IT,42.4408,11.2196,73.45,33,0,8.16,clear sky
245,Qaqortoq,GL,60.7167,-46.0333,51.55,60,82,7.23,broken clouds
246,Yola,NG,9.2,12.4833,84.4,66,82,1.03,light rain
247,Bardiyah,LY,31.7561,25.0865,83.19,53,0,14.25,clear sky
248,Kalabo,ZM,-14.97,22.6814,100.33,11,1,2.82,clear sky
249,Roma,US,43.2128,-75.4557,70.83,91,100,3.44,overcast clouds
250,Kargat,RU,55.1956,80.2811,51.53,59,10,2.68,clear sky
251,Cidreira,BR,-30.1811,-50.2056,63.41,68,97,14.09,overcast clouds
252,Sobolevo,RU,54.4299,31.8996,53.11,77,100,8.84,light rain
253,Saldanha,ZA,-33.0117,17.9442,58.64,59,0,19.3,clear sky
254,Glenwood Springs,US,39.5505,-107.3248,54.63,45,0,6.91,clear sky
255,Assiniboia,CA,49.6334,-105.9845,49.71,70,0,7.29,clear sky
256,Mehamn,NO,71.0357,27.8492,46.31,93,75,19.57,broken clouds
257,Ambon,ID,-3.6954,128.1814,82.24,13,75,4.61,broken clouds
258,Coihaique,CL,-45.5752,-72.0662,39.15,56,75,3.44,broken clouds
259,Rawson,AR,-43.3002,-65.1023,46.76,58,100,19.42,overcast clouds
260,Mangan,IN,27.5167,88.5333,76.71,93,39,1.95,scattered clouds
261,Halifax,CA,44.6453,-63.5724,59.45,83,100,3.0,overcast clouds
262,Mercedes,AR,-34.6515,-59.4307,65.79,56,100,10.29,overcast clouds
263,Dori,BF,14.0354,-0.0345,83.91,60,100,9.33,light rain
264,Sisimiut,GL,66.9395,-53.6735,42.1,92,100,13.02,overcast clouds
265,Sao Jose Da Coroa Grande,BR,-8.8978,-35.1478,80.65,68,43,11.3,scattered clouds
266,Nanortalik,GL,60.1432,-45.2371,47.14,72,83,6.51,broken clouds
267,Phan Thiet,VN,10.9333,108.1,80.04,82,100,7.94,overcast clouds
268,Kita,ML,13.0349,-9.4895,84.29,61,98,4.94,overcast clouds
269,Along,IN,28.1667,94.7667,78.76,93,7,0.29,clear sky
270,Guerrero Negro,MX,27.9769,-114.0611,66.78,85,1,10.25,clear sky
271,Bykovo,RU,55.6361,38.0803,55.13,94,100,8.95,overcast clouds
272,Hithadhoo,MV,-0.6,73.0833,82.72,71,95,7.52,overcast clouds
273,Winnemucca,US,40.973,-117.7357,44.65,61,0,6.91,clear sky
274,Montijo,PT,38.7067,-8.9739,86.58,52,0,6.91,clear sky
275,Manokwari,ID,-0.8667,134.0833,78.85,77,100,2.48,overcast clouds
276,Ostrovnoy,RU,68.0531,39.5131,48.13,98,100,10.02,light rain
277,Matagami,CA,49.7502,-77.6328,45.52,65,100,8.66,overcast clouds
278,Castro,BR,-24.7911,-50.0119,57.83,64,0,11.7,clear sky
279,Plettenberg Bay,ZA,-34.0527,23.3716,54.77,90,100,9.55,light rain
280,Manica,FR,49.0,-1.1667,64.85,46,7,9.24,clear sky
281,Vestmannaeyjar,IS,63.4427,-20.2734,49.19,87,100,32.21,overcast clouds
282,Auki,SB,-8.7676,160.7034,77.54,89,99,5.46,overcast clouds
283,Aloleng,PH,16.1307,119.7824,81.03,81,100,11.34,overcast clouds
284,Srivardhan,IN,18.0333,73.0167,80.01,78,49,4.47,scattered clouds
285,Nawa,IN,27.0167,75.0,88.66,38,0,8.32,clear sky
286,Fort Nelson,CA,58.8053,-122.7002,42.87,77,100,3.27,overcast clouds
287,Aripuana,BR,-9.1667,-60.6333,88.92,48,85,3.65,overcast clouds
288,Oppdal,NO,62.5943,9.6912,41.32,98,100,6.35,overcast clouds
289,Abashiri,JP,44.0213,144.2697,70.95,96,100,7.83,light rain
290,Yucca Valley,US,34.1142,-116.4322,68.05,18,0,8.99,clear sky
291,Celle,DE,52.6226,10.0805,58.1,96,28,5.75,light rain
292,Vardo,NO,70.3705,31.1107,46.38,100,100,13.8,light intensity drizzle
293,Port Hardy,CA,50.6996,-127.4199,49.78,91,5,0.56,clear sky
294,Ahipara,NZ,-35.1667,173.1667,58.82,79,100,14.29,overcast clouds
295,Maceio,BR,-9.6658,-35.7353,83.64,61,75,10.36,broken clouds
296,Hirara,JP,24.8,125.2833,80.62,78,98,21.0,overcast clouds
297,Mastic Beach,US,40.7668,-72.8521,73.65,84,5,18.99,clear sky
298,Klamath Falls,US,42.2249,-121.7817,51.87,78,100,0.0,overcast clouds
299,Bilibino,RU,68.0546,166.4372,28.24,92,99,3.02,overcast clouds
300,Poum,NC,-20.2333,164.0167,74.71,74,0,8.01,clear sky
301,Lavrentiya,RU,65.5833,-171.0,38.34,94,100,15.43,overcast clouds
302,Nadym,RU,65.5333,72.5167,47.41,89,100,20.87,moderate rain
303,Sao Filipe,CV,14.8961,-24.4956,78.01,75,48,7.2,scattered clouds
304,Yaan,NG,7.3833,8.5667,82.81,69,50,5.12,light rain
305,Talnakh,RU,69.4865,88.3972,36.36,100,100,6.08,light rain
306,Verkhnyaya Inta,RU,65.9811,60.3094,46.42,95,100,6.51,light rain
307,Cabimas,VE,10.3883,-71.4399,81.25,79,100,2.8,overcast clouds
308,Bandar,ID,2.05,99.75,74.64,90,100,1.57,overcast clouds
309,Mountain Home,US,43.133,-115.6912,56.68,62,40,11.5,scattered clouds
310,Ust-Koksa,RU,50.2696,85.6108,47.59,56,0,1.21,clear sky
311,Namibe,AO,-15.1961,12.1522,70.7,73,26,15.57,scattered clouds
312,Yubari,JP,43.0378,141.9578,66.94,97,100,6.38,light rain
313,Komsomolskiy,UZ,40.4272,71.7189,83.12,24,2,6.91,clear sky
314,Cap Malheureux,MU,-19.9842,57.6142,72.46,71,60,7.0,broken clouds
315,Mankono,CI,8.0586,-6.1897,80.85,69,78,8.79,broken clouds
316,Kumo,NG,10.0447,11.2122,80.6,67,100,5.14,light rain
317,Rio Grande,BR,-32.035,-52.0986,69.91,74,100,18.75,overcast clouds
318,Yellowknife,CA,62.456,-114.3525,43.32,100,75,12.66,mist
319,Taoudenni,ML,22.6783,-3.9836,104.61,12,17,6.31,few clouds
320,Palm Springs,US,33.8303,-116.5453,75.04,55,0,1.99,clear sky
321,Shagamu,NG,6.8432,3.6478,80.64,79,100,6.04,light rain
322,Vaitape,PF,-16.5167,-151.75,76.89,78,1,20.33,light rain
323,Waipawa,NZ,-41.4122,175.5153,42.35,84,100,5.1,overcast clouds
324,Puerto Ayacucho,VE,5.6639,-67.6236,77.81,87,67,3.0,broken clouds
325,Lisakovsk,KZ,52.5369,62.4936,69.75,28,99,5.46,overcast clouds
326,Caravelas,BR,-17.7125,-39.2481,69.48,74,100,6.76,overcast clouds
327,Seoul,KR,37.5683,126.9778,81.84,66,100,6.87,overcast clouds
328,Cururupu,BR,-1.8283,-44.8683,83.66,65,88,7.38,overcast clouds
329,Zhangye,CN,38.9342,100.4517,58.3,81,100,11.79,overcast clouds
330,Atasu,KZ,48.6814,71.6433,64.31,18,0,7.96,clear sky
331,Muros,ES,42.7762,-9.0603,82.09,53,100,3.91,overcast clouds
332,Onokhoy,RU,51.932,108.0747,44.35,66,0,5.01,clear sky
333,Sao Miguel Do Araguaia,BR,-13.275,-50.1628,97.47,24,40,7.09,scattered clouds
334,Te Anau,NZ,-45.4167,167.7167,41.45,92,100,2.1,light rain
335,Fairbanks,US,64.8378,-147.7164,45.61,90,100,3.44,overcast clouds
336,Pinotepa Nacional,MX,16.3167,-98.0167,71.55,96,100,0.67,overcast clouds
337,Missao Velha,BR,-7.2497,-39.1431,88.38,35,71,6.38,broken clouds
338,Charters Towers,AU,-20.1,146.2667,72.91,78,54,9.31,broken clouds
339,Pyaozerskiy,RU,65.8333,31.1667,51.42,89,100,8.48,overcast clouds
340,Vostok,RU,46.4856,135.8833,55.53,98,2,5.12,clear sky
341,Zhigansk,RU,66.7697,123.3711,33.8,97,100,14.05,light snow
342,Fuerte,PH,17.5381,120.3644,80.1,82,52,7.43,broken clouds
343,Baykit,RU,61.67,96.37,47.1,98,100,3.53,light rain
344,San Patricio,US,28.017,-97.5169,84.09,78,2,4.9,clear sky
345,Outlook,CA,51.5001,-107.0513,47.05,58,6,6.67,clear sky
346,Fujin,CN,47.26,132.0322,59.16,57,100,13.47,overcast clouds
347,Chokurdakh,RU,70.6333,147.9167,33.96,69,75,5.5,broken clouds
348,Kodiak,US,57.79,-152.4072,51.31,71,100,4.61,overcast clouds
349,Kruisfontein,ZA,-34.0033,24.7314,57.88,89,100,13.89,light rain
350,Bilma,NE,18.6853,12.9164,98.49,24,99,5.01,overcast clouds
351,Lagoa,PT,39.05,-27.9833,73.44,87,12,7.16,few clouds
352,Talaya,RU,61.3833,152.75,34.68,54,37,5.84,scattered clouds
353,Port Macquarie,AU,-31.4333,152.9167,58.89,69,100,6.02,overcast clouds
354,Kannod,IN,22.6667,76.7333,79.88,77,48,4.7,scattered clouds
355,Iqaluit,CA,63.7506,-68.5145,40.69,75,14,18.99,few clouds
356,Alihe,CN,50.5667,123.7167,41.22,64,7,11.34,clear sky
357,Vagay,RU,57.9375,69.0217,56.46,61,100,11.48,overcast clouds
358,Chopinzinho,BR,-25.8558,-52.5233,61.3,54,0,11.9,clear sky
359,Vanavara,RU,60.34,102.2797,43.43,83,100,4.63,overcast clouds
360,Whitehorse,CA,60.7161,-135.0538,39.31,93,100,3.0,overcast clouds
361,Ixtapa,MX,20.7,-105.2,78.22,94,100,0.0,overcast clouds
362,Idritsa,RU,56.3316,28.8988,58.95,60,100,4.23,overcast clouds
363,Pundaguitan,PH,6.3711,126.1689,84.2,72,100,9.73,overcast clouds
364,Pochutla,MX,15.7432,-96.4661,73.22,91,100,4.74,overcast clouds
365,Nuuk,GL,64.1835,-51.7216,50.61,66,75,16.11,broken clouds
366,Tukums,LV,56.9669,23.1553,60.15,67,74,5.41,broken clouds
367,Benito Juarez,MX,19.385,-99.165,60.94,91,100,5.75,overcast clouds
368,Bandarbeyla,SO,9.4942,50.8122,84.9,60,0,28.66,clear sky
369,Cancun,MX,21.1743,-86.8466,80.53,89,20,0.0,few clouds
370,Mainit,PH,9.535,125.5231,80.76,79,100,1.77,overcast clouds
371,Ust-Kan,RU,50.9276,84.761,45.03,63,0,3.44,clear sky
372,Marawi,PH,7.9986,124.2928,69.8,93,99,2.89,light rain
373,Boguchany,RU,58.3814,97.4531,46.35,91,100,3.11,overcast clouds
374,San Miguel,SV,13.4833,-88.1833,74.07,96,32,1.19,scattered clouds
375,Lososina,RU,48.9975,140.3106,54.45,98,77,6.04,broken clouds
376,Ola,RU,59.5833,151.2833,43.16,87,75,2.39,broken clouds
377,Saint-Francois,FR,46.4154,3.9054,63.68,45,0,5.75,clear sky
378,Roald,NO,62.5833,6.1333,57.76,71,40,17.27,scattered clouds
379,Sunnyside,US,46.3237,-120.0087,57.0,94,40,3.44,scattered clouds
380,Feicheng,CN,35.2606,117.9675,65.35,70,3,5.23,clear sky
381,Balkhash,KZ,46.844,74.9804,66.29,29,0,7.11,clear sky
382,Moyale,KE,3.5167,39.0584,83.12,32,89,14.07,overcast clouds
383,Margate,GB,51.3813,1.3862,63.7,59,100,7.0,overcast clouds
384,Austin,US,30.2672,-97.7431,77.86,93,100,4.61,mist
385,Sri Aman,MY,1.2376,111.4621,75.61,97,100,1.74,light rain
386,Mandalgovi,MN,45.7625,106.2708,44.49,43,54,13.6,broken clouds
387,Usinsk,RU,65.9939,57.5281,47.64,95,100,13.62,overcast clouds
388,Lorengau,PG,-2.0226,147.2712,81.82,76,58,6.85,broken clouds
389,Severo-Yeniseyskiy,RU,60.3725,93.0408,44.17,92,100,5.64,light rain
390,Mareeba,AU,-17.0,145.4333,74.12,93,23,4.25,few clouds
391,Hovd,MN,48.0056,91.6419,48.49,45,1,2.73,clear sky
392,Hornepayne,CA,49.2138,-84.7705,51.93,99,100,5.7,overcast clouds
393,Lebanon,US,36.2081,-86.2911,69.96,87,20,0.0,few clouds
394,Saint-Augustin,CA,51.226,-58.6502,47.08,52,26,20.45,scattered clouds
395,Gurupa,BR,-1.405,-51.64,87.13,55,58,5.82,broken clouds
396,Rivera,UY,-30.9053,-55.5508,60.48,70,100,14.05,light rain
397,Tahta,EG,26.7693,31.5021,97.03,12,0,16.58,clear sky
398,Nago,JP,26.5881,127.9761,81.45,86,100,20.42,overcast clouds
399,Fukue,JP,32.6881,128.8419,77.88,91,100,62.79,light rain
400,Severo-Kurilsk,RU,50.6789,156.125,48.94,72,100,9.1,overcast clouds
401,Hambantota,LK,6.1241,81.1185,81.57,75,100,19.66,overcast clouds
402,Smithers,CA,54.7804,-127.1743,34.12,100,75,0.0,mist
403,Trapani,IT,37.8333,12.6667,80.89,36,98,11.86,overcast clouds
404,Yeppoon,AU,-23.1333,150.7333,65.98,93,0,4.54,clear sky
405,Bathsheba,BB,13.2167,-59.5167,86.61,74,20,20.71,few clouds
406,Elko,US,41.0002,-115.5012,48.63,72,96,5.01,overcast clouds
407,Nyaunglebin,MM,17.95,96.7333,75.61,96,97,5.12,overcast clouds
408,Nouakchott,MR,18.0858,-15.9785,93.13,39,100,8.03,overcast clouds
409,Mazamari,PE,-11.3258,-74.5308,75.78,76,12,1.57,few clouds
410,San Matias,BO,-16.3667,-58.4,96.57,24,0,2.08,clear sky
411,Los Llanos De Aridane,ES,28.6585,-17.9182,75.13,79,75,5.99,broken clouds
412,Laguna,US,38.421,-121.4238,62.74,77,40,10.36,scattered clouds
413,Orebro,SE,59.2741,15.2066,63.25,45,0,9.22,clear sky
414,Bulawayo,ZW,-20.15,28.5833,86.99,14,1,6.26,clear sky
415,Moose Factory,CA,51.2585,-80.6094,48.2,76,100,5.75,overcast clouds
416,Chara,RU,56.9064,118.2631,29.46,66,46,4.41,scattered clouds
417,Santo Domingo,DO,18.5001,-69.9886,83.03,85,40,14.97,scattered clouds
418,Belyy Yar,RU,53.6039,91.3903,53.85,57,0,0.0,clear sky
419,Parfenyevo,RU,58.484,43.4088,61.47,51,100,7.78,overcast clouds
420,Conde,BR,-7.2597,-34.9075,81.86,74,75,18.41,broken clouds
421,Bam,IR,29.106,58.357,92.34,10,75,11.1,broken clouds
422,Jizan,SA,17.3333,42.6667,100.2,35,43,16.13,scattered clouds
423,Daru,PG,-9.0763,143.2092,79.97,89,83,12.17,broken clouds
424,Aswan,EG,24.0934,32.907,102.56,11,3,11.65,clear sky
425,Manavgat,TR,36.7867,31.4431,84.09,57,0,9.53,clear sky
426,Illapel,CL,-31.6308,-71.1653,52.32,85,96,3.8,overcast clouds
427,Faya,SA,18.3851,42.4509,75.72,37,95,10.94,overcast clouds
428,Haines Junction,CA,60.7522,-137.5108,31.95,93,100,0.0,overcast clouds
429,Dunedin,NZ,-45.8742,170.5036,48.79,88,59,3.0,broken clouds
430,Vitim,RU,59.4511,112.5578,33.78,60,98,4.47,overcast clouds
431,Ticuantepe,NI,12.0226,-86.2049,72.28,94,40,0.0,scattered clouds
432,Suez,EG,29.9737,32.5263,92.35,30,0,8.12,clear sky
433,Poronaysk,RU,49.2167,143.1167,51.64,97,62,1.66,broken clouds
434,Saint Anthony,US,45.0205,-93.218,64.81,90,100,12.66,overcast clouds
435,Flin Flon,CA,54.7682,-101.865,51.64,93,100,5.75,overcast clouds
436,Mogadishu,SO,2.0371,45.3438,79.52,78,31,19.28,scattered clouds
437,Tiznit,MA,29.5833,-9.5,76.6,52,5,11.63,clear sky
438,Mahina,PF,-17.5065,-149.489,73.17,78,20,3.44,few clouds
439,Funehiki,JP,37.4333,140.5833,74.75,97,100,8.01,overcast clouds
440,Nizhniy Kuranakh,RU,58.8353,125.4869,28.71,88,97,6.85,overcast clouds
441,Seminole,US,28.7086,-81.2081,77.09,95,40,0.0,scattered clouds
442,Shimoda,JP,34.6667,138.95,79.11,92,100,11.14,overcast clouds
443,Bosconia,CO,9.9689,-73.8836,76.78,89,100,3.51,overcast clouds
444,Tevriz,RU,57.509,72.4042,59.67,46,100,9.15,overcast clouds
445,Rawah,IQ,34.4816,41.9093,104.52,11,0,9.57,clear sky
446,Sorong,ID,-0.8833,131.25,80.74,76,100,3.36,moderate rain
447,Makakilo City,US,21.3469,-158.0858,77.32,83,0,4.61,clear sky
448,Khani,GE,41.9563,42.9566,89.17,24,14,4.27,few clouds
449,Meadow Lake,US,34.8014,-106.5436,68.14,45,0,5.97,clear sky
450,Funtua,NG,11.5233,7.3081,82.71,55,99,3.83,overcast clouds
451,Bereda,ES,43.2686,-7.5406,80.42,54,100,5.35,overcast clouds
452,Kolondieba,ML,11.0882,-6.8926,81.01,71,91,7.09,overcast clouds
453,Ust-Maya,RU,60.4167,134.5333,38.86,98,100,6.11,light rain
454,Dudinka,RU,69.4058,86.1778,44.06,95,100,9.15,overcast clouds
455,Dzaoudzi,YT,-12.7887,45.2699,82.29,65,40,5.75,scattered clouds
456,Balykshi,KZ,47.0667,51.8667,86.0,23,0,17.9,clear sky
457,Xichang,CN,27.8964,102.2634,70.27,82,7,4.07,clear sky
458,Fortuna,US,40.5982,-124.1573,55.92,91,100,4.59,overcast clouds
459,Villa Del Rosario,CO,7.8339,-72.4742,75.58,88,40,6.91,scattered clouds
460,Elmvale,CA,44.5834,-79.8664,68.29,96,100,8.55,moderate rain
461,Guisijan,PH,11.0932,122.0461,79.84,85,97,4.63,moderate rain
462,Karratha,AU,-20.7377,116.8463,73.65,55,2,12.5,light rain
463,Oktyabrskoye,RU,43.0645,44.7417,91.54,24,0,15.66,clear sky
464,Sandur,IN,15.1,76.55,77.72,71,100,9.24,overcast clouds
465,Sawakin,SD,19.1059,37.3321,95.56,38,14,9.86,few clouds
466,Katsuura,JP,35.1333,140.3,79.66,91,100,19.08,overcast clouds
467,Punta Gorda,US,26.9298,-82.0454,75.97,96,100,5.99,overcast clouds
468,Mananara,MG,-16.1667,49.7667,74.73,67,9,7.4,clear sky
469,Clonakilty,IE,51.6231,-8.8706,61.81,64,14,1.21,few clouds
470,Ostersund,SE,63.1792,14.6357,53.62,87,75,14.97,broken clouds
471,Agadez,NE,19.75,10.25,102.72,16,99,8.34,overcast clouds
472,Helena,US,46.5927,-112.0361,45.59,84,0,1.99,clear sky
473,Yar-Sale,RU,66.8333,70.8333,48.87,90,100,15.5,moderate rain
474,Kovdor,RU,67.5662,30.4758,47.61,95,100,9.64,light rain
475,Uray,RU,60.1247,64.7758,59.79,57,85,11.25,overcast clouds
476,Point Pedro,LK,9.8167,80.2333,81.37,80,100,17.81,overcast clouds
477,Nikki,BJ,9.9401,3.2108,79.11,78,52,3.8,light rain
478,Sinop,TR,41.7711,34.8709,77.0,49,0,9.62,clear sky
479,Iquique,CL,-20.2208,-70.1431,60.84,65,35,9.15,scattered clouds
480,Mnogovershinnyy,RU,53.9353,139.9242,47.05,97,94,4.7,overcast clouds
481,Sao Joao Da Barra,BR,-21.6403,-41.0511,71.69,60,5,9.82,clear sky
482,Paris,FR,48.8534,2.3488,68.95,50,40,13.8,scattered clouds
483,Manavalakurichi,IN,8.1333,77.3,80.11,82,100,15.79,overcast clouds
484,Ladybrand,ZA,-29.1945,27.4574,80.91,11,100,26.37,overcast clouds
485,Santa Cruz,BO,-17.8,-63.1667,84.25,54,3,17.27,clear sky
486,Lagdo,CM,9.05,13.7333,75.24,87,100,3.02,overcast clouds
487,Kasangulu,CD,-4.5911,15.1708,87.53,43,90,7.65,overcast clouds
488,Kamaishi,JP,39.2667,141.8833,75.15,96,100,12.82,light rain
489,Sioux Lookout,CA,50.1001,-91.917,59.07,100,100,3.44,fog
490,Kieta,PG,-6.2167,155.6333,79.56,86,97,8.57,moderate rain
491,Nakusp,CA,50.2499,-117.8023,42.48,100,100,2.3,overcast clouds
492,Lakefield,US,43.6775,-95.1717,60.51,96,100,4.61,overcast clouds
493,Grand-Bourg,GP,15.8835,-61.3148,84.15,78,98,20.24,overcast clouds
494,Petropavlovsk-Kamchatskiy,RU,53.0452,158.6483,44.04,65,100,3.0,overcast clouds
495,Saint-Louis,SN,16.3333,-15.0,95.56,25,100,4.85,overcast clouds
496,Walvis Bay,NA,-22.9575,14.5053,67.15,55,0,12.66,clear sky
497,Homer,US,59.6425,-151.5483,49.05,87,0,5.75,clear sky
498,Masvingo,ZW,-20.0637,30.8277,90.36,13,6,4.65,clear sky
499,Jati,PK,24.3539,68.2671,86.67,55,17,11.07,few clouds
500,Key West,US,24.5557,-81.7826,86.0,75,0,9.22,clear sky
501,Yerbogachen,RU,61.2767,108.0108,38.39,61,100,7.18,overcast clouds
502,Pemberton,CA,50.3164,-122.8027,44.29,83,0,2.19,clear sky
503,Vieques,PR,18.425,-65.8329,77.02,88,100,23.02,heavy intensity rain
504,Progreso,MX,21.2833,-89.6667,76.1,87,15,5.61,few clouds
505,Husavik,IS,66.0449,-17.3389,50.77,65,50,2.68,scattered clouds
506,Banswara,IN,23.55,74.45,82.72,68,4,1.86,clear sky
507,Shirokiy,RU,49.758,129.523,44.73,92,100,13.44,overcast clouds
508,Bolgar,RU,54.95,49.0667,64.0,62,96,3.51,overcast clouds
509,Gaoual,GN,11.75,-13.2,76.26,93,100,3.04,light rain
510,Cabedelo,BR,-6.9811,-34.8339,83.07,72,55,15.75,broken clouds
511,Saryozek,KZ,44.3583,77.9753,67.12,19,62,7.45,broken clouds
512,Nishihara,JP,26.1842,127.7558,81.68,89,75,19.57,broken clouds
513,Aitape,PG,-3.1374,142.3475,79.11,84,35,4.36,scattered clouds
514,Tieling,CN,42.2931,123.8414,56.97,61,1,0.11,clear sky
515,Najran,SA,17.4924,44.1277,97.45,13,100,13.13,overcast clouds
516,Boende,CD,-0.2167,20.8667,84.65,59,100,1.61,overcast clouds
517,Port Hedland,AU,-20.3167,118.5667,71.65,73,3,8.05,clear sky
518,Ancud,CL,-41.8697,-73.8203,43.23,85,90,8.68,overcast clouds
519,Goderich,CA,43.7501,-81.7165,71.91,83,100,13.8,overcast clouds
520,Japura,ID,-0.3167,102.35,74.82,95,97,2.21,overcast clouds
521,Grindavik,IS,63.8424,-22.4338,53.55,87,75,26.46,broken clouds
522,North Platte,US,41.1239,-100.7654,62.49,83,20,15.99,few clouds
523,Langxiang,CN,46.95,128.8833,51.04,62,100,12.48,overcast clouds
524,Palaiokomi,GR,40.8667,23.9,75.6,29,0,15.35,clear sky
525,The Valley,AI,18.217,-63.0578,83.1,78,100,23.31,overcast clouds
526,Palestine,PS,31.9216,35.2033,77.94,68,2,15.79,clear sky
527,Pangnirtung,CA,66.1451,-65.7125,40.98,56,0,3.38,clear sky
528,Constantine,DZ,36.365,6.6147,83.61,51,40,6.91,scattered clouds
529,Cockburn Town,TC,21.4612,-71.1419,85.96,62,40,11.5,scattered clouds
530,Severomuysk,RU,56.1481,113.4267,21.94,70,35,5.55,scattered clouds
531,Juneau,US,58.3019,-134.4197,52.21,97,100,6.91,light rain
532,Kokopo,PG,-4.352,152.2633,77.41,83,56,8.41,broken clouds
533,Ternate,ID,0.8,127.4,81.39,75,100,2.98,overcast clouds
534,Kyabe,TD,9.4515,18.9449,77.07,79,100,4.45,overcast clouds
535,Kudahuvadhoo,MV,2.6708,72.8944,82.24,68,69,6.89,broken clouds
536,Radomsko,PL,51.0671,19.4448,54.52,71,100,18.12,overcast clouds
537,Kenai,US,60.5544,-151.2583,51.89,76,0,14.97,clear sky
538,Muborak,UZ,39.2553,65.1528,87.87,15,0,7.36,clear sky
539,Pisco,PE,-13.7,-76.2167,63.01,88,100,3.44,mist
540,Pratapgarh,IN,24.0333,74.7833,78.01,76,3,6.06,clear sky
541,Aguimes,ES,27.9054,-15.4461,74.66,83,75,5.75,broken clouds
542,Drayton Valley,CA,53.2168,-114.9854,45.5,76,96,7.61,overcast clouds
543,Benjamin Aceval,PY,-24.9667,-57.5667,73.54,34,5,13.15,clear sky
544,Chichihualco,MX,17.6833,-99.65,63.25,96,100,1.61,overcast clouds
545,Stephenville,US,32.2207,-98.2023,75.81,88,0,5.75,clear sky
546,Mbekenyera,TZ,-10.0,38.9833,87.06,35,89,9.55,overcast clouds
547,Atambua,ID,-9.1061,124.8925,74.41,79,81,0.4,broken clouds
548,Ishigaki,JP,24.3448,124.1572,78.93,83,20,3.44,few clouds
549,Grand-Lahou,CI,5.1367,-5.0242,81.72,69,26,10.94,scattered clouds
550,Axim,GH,4.8699,-2.2405,80.17,73,68,11.03,broken clouds
551,Matamoros,MX,25.5333,-103.25,73.51,65,75,5.75,broken clouds
552,Salalah,OM,17.0151,54.0924,82.49,89,100,10.36,overcast clouds
553,Cankuzo,BI,-3.1333,30.5833,80.06,31,100,7.29,overcast clouds
554,Awjilah,LY,29.1081,21.2869,97.83,10,0,5.82,clear sky
555,Stanovoye,RU,52.7638,38.3582,61.52,94,100,10.69,light rain
556,Tezu,IN,27.9167,96.1667,80.65,89,7,2.77,clear sky
557,Mae Sai,TH,20.4335,99.8762,74.28,95,12,1.03,few clouds
558,Kencong,ID,-8.2833,113.3667,76.66,85,100,2.35,overcast clouds
559,Shingu,JP,33.7333,135.9833,80.04,93,100,17.6,overcast clouds
560,Vorotynets,RU,56.0603,45.8633,54.86,75,100,9.86,overcast clouds
561,Brokopondo,SR,4.75,-55.1667,82.08,67,100,7.99,overcast clouds
562,Nara,JP,34.6851,135.8049,83.91,61,100,16.22,overcast clouds
563,Berdigestyakh,RU,62.0989,126.6992,28.63,92,16,8.32,few clouds
564,Saint-Michel-Des-Saints,CA,46.6834,-73.9159,50.94,99,100,4.29,light rain
565,Srednekolymsk,RU,67.45,153.6833,34.66,67,0,8.23,clear sky
566,Goksun,TR,38.021,36.4973,84.43,19,0,13.0,clear sky
567,Kariba,ZW,-16.5167,28.8,89.89,24,15,3.09,few clouds
568,Machachi,EC,-0.5,-78.5667,51.3,68,7,2.73,clear sky
569,Adelaide,AU,-34.9333,138.6,53.47,80,75,5.75,broken clouds
570,Una,IN,20.8167,71.0333,79.18,80,1,11.14,clear sky
571,Fethiye,TR,36.6217,29.1164,84.07,41,0,7.43,clear sky
572,Nome,US,64.5011,-165.4064,46.47,87,100,29.93,overcast clouds
573,Qiongshan,CN,20.0058,110.3542,82.38,83,0,4.47,clear sky
574,Pabbi,PK,34.0106,71.7989,92.08,43,0,6.73,clear sky
575,Esna,EG,25.2934,32.554,100.27,13,0,15.59,clear sky
576,Aklavik,CA,68.2191,-135.0107,44.26,71,96,3.6,overcast clouds
577,Barsi,IN,18.2333,75.7,80.26,67,79,8.32,broken clouds
578,Jinchang,CN,38.4953,102.1739,62.51,77,100,16.78,overcast clouds
579,Tomatlan,MX,19.9333,-105.25,73.67,94,100,3.96,overcast clouds
580,Buala,SB,-8.145,159.5921,78.35,87,100,4.25,light rain
581,Burnie,AU,-41.0667,145.9167,47.95,82,62,9.19,broken clouds
582,Puro,PH,12.4841,123.3827,82.44,77,99,13.98,overcast clouds
583,Anito,PH,12.4497,125.2886,78.24,90,100,5.53,heavy intensity rain
584,Sheboygan,US,43.7333,-87.9334,69.39,92,40,6.91,scattered clouds
585,Teya,RU,60.3778,92.6267,47.75,92,100,2.19,light rain
586,Naze,JP,28.3667,129.4833,79.72,88,100,25.3,heavy intensity rain
587,Luanda,AO,-8.8368,13.2343,74.89,76,100,9.73,overcast clouds
588,Sao Francisco De Paula,BR,-29.4481,-50.5836,56.37,48,76,4.21,broken clouds
589,Todos Santos,MX,23.45,-110.2167,73.65,96,85,3.56,overcast clouds
590,Kinablangan,PH,7.6947,126.5503,79.54,86,100,9.35,overcast clouds
591,Khoy,IR,38.5504,44.9535,90.12,19,20,9.22,few clouds
592,Maarianhamina,AX,60.0973,19.9348,55.26,71,75,11.5,broken clouds
593,Berbera,SO,10.4396,45.0143,93.24,54,0,9.64,clear sky
594,Jardim,BR,-21.4803,-56.1381,77.45,35,0,9.73,clear sky
595,Istok,XK,42.7808,20.4875,63.09,43,44,2.91,scattered clouds
596,Bouna,CI,9.2667,-3.0,78.37,77,95,8.21,overcast clouds
597,Inta,RU,66.0317,60.1659,47.12,94,100,5.75,overcast clouds
598,Takoradi,GH,4.8845,-1.7554,79.43,76,56,13.11,light rain
599,Kyaikkami,MM,16.08,97.5675,78.93,87,100,15.99,heavy intensity rain
600,Catania,IT,37.5021,15.0872,82.47,62,20,16.11,few clouds
601,Pak Phanang,TH,8.3511,100.202,82.42,65,81,8.59,light rain
602,Arman,RU,59.7,150.1667,42.55,89,64,2.8,broken clouds
603,Ginda,IN,30.6945,78.4932,64.2,92,4,3.2,clear sky
604,Sorland,NO,67.667,12.6934,51.66,87,75,12.66,broken clouds
605,Buchen,DE,49.5239,9.3231,55.31,81,100,11.03,overcast clouds
606,Tura,IN,25.5198,90.2201,76.8,94,100,2.33,overcast clouds
607,Portadown,GB,54.4241,-6.4412,63.99,77,100,9.17,overcast clouds
608,Skjervoy,NO,70.0311,20.9714,48.2,81,85,13.87,overcast clouds
609,Yerofey Pavlovich,RU,53.9667,121.9667,32.43,58,6,10.8,clear sky
610,Prince Rupert,CA,54.3161,-130.3201,49.69,100,0,4.61,clear sky
611,Hasaki,JP,35.7333,140.8333,79.29,88,100,21.52,overcast clouds
612,Peleduy,RU,59.6289,112.7406,33.76,61,99,3.98,overcast clouds
613,Lima,PE,-12.0432,-77.0282,59.9,87,100,4.61,overcast clouds
614,Shelburne,CA,44.0787,-80.2041,66.76,93,100,16.15,overcast clouds
615,Chishan,TW,22.6392,120.3565,82.9,77,40,2.3,scattered clouds
616,Chunskiy,RU,56.0815,99.6342,47.71,66,57,2.15,broken clouds
617,Kaabong,UG,3.4836,34.1492,80.37,37,54,13.38,broken clouds
618,Obuasi,GH,6.206,-1.6619,79.5,77,79,4.34,light rain
619,Palmer,US,42.1584,-72.3287,69.24,82,40,5.75,scattered clouds
620,Orlik,RU,52.5178,99.825,38.3,65,6,1.1,clear sky
621,Hobara,JP,37.8167,140.55,78.37,80,100,1.01,overcast clouds
622,Saint-Pierre,RE,-21.3393,55.4781,76.68,61,75,8.05,broken clouds
623,Ulaangom,MN,49.9811,92.0667,48.67,58,0,2.39,clear sky
624,Plymouth,US,41.8334,-70.8328,73.2,81,0,13.8,clear sky
625,Kota Kinabalu,MY,5.9749,116.0724,82.38,78,20,5.99,few clouds
626,Piacabucu,BR,-10.4056,-36.4344,80.06,64,14,8.79,few clouds
627,Filadelfia,US,39.9523,-75.1638,70.93,90,75,6.91,broken clouds
628,Esteli,NI,13.0919,-86.3538,73.15,93,47,3.2,scattered clouds
629,Linjiang,CN,41.8069,126.9078,50.34,94,0,0.92,clear sky
630,Bambous Virieux,MU,-20.3428,57.7575,73.65,68,75,17.27,light rain
631,Alekseyevka,RU,50.6309,38.6903,78.73,57,33,16.53,scattered clouds
632,Waitati,NZ,-45.75,170.5667,48.79,88,100,7.31,overcast clouds
633,Olafsvik,IS,64.8945,-23.7142,50.18,78,77,15.64,broken clouds
634,Linhares,BR,-19.3911,-40.0722,68.25,64,100,6.69,overcast clouds
635,Parainen,FI,60.3067,22.301,58.1,73,37,12.41,scattered clouds
636,Vila Velha,BR,-20.3297,-40.2925,73.35,68,75,14.0,broken clouds
637,Dharchula,IN,29.85,80.5333,71.02,92,31,1.28,moderate rain
638,Tofield,CA,53.3668,-112.6686,44.28,88,18,10.11,few clouds
639,Yamada,JP,39.4667,141.95,74.93,96,100,11.18,light rain
640,Lompoc,US,34.6391,-120.4579,57.58,93,100,10.36,overcast clouds
641,Troitsko-Pechorsk,RU,62.7084,56.1964,54.28,73,12,10.16,few clouds
642,Mopipi,BW,-21.1833,24.8833,93.15,11,0,8.25,clear sky
643,Krapivinskiy,RU,54.9992,86.8133,48.43,57,7,0.49,clear sky
644,Timra,SE,62.487,17.3257,53.28,71,0,16.11,clear sky
645,Severodvinsk,RU,64.5635,39.8302,55.51,91,100,12.82,overcast clouds
646,Dapaong,TG,10.8639,0.205,80.33,74,87,7.96,overcast clouds
647,Alta Floresta,BR,-9.8756,-56.0861,82.22,78,47,2.3,smoke
648,Long Xuyen,VN,10.3833,105.4167,76.95,80,79,8.9,broken clouds
649,Pitimbu,BR,-7.4706,-34.8086,82.99,69,39,14.34,scattered clouds
650,Erdenet,MN,49.0333,104.0833,37.92,61,5,0.78,clear sky
651,Manuk Mangkaw,PH,4.8,119.85,84.51,71,100,7.4,overcast clouds
652,Aleksandrov Gay,RU,50.147,48.5704,81.55,48,100,9.78,overcast clouds
653,Novo Aripuana,BR,-5.1206,-60.3797,84.87,62,87,3.24,moderate rain
654,Kayes,ML,14.0,-11.0,81.75,70,100,6.78,overcast clouds
655,San Ramon,US,37.7799,-121.978,62.53,75,75,14.97,broken clouds
656,Syracuse,IT,37.0881,15.2792,81.99,70,20,14.14,few clouds
657,Uyemskiy,RU,64.4743,40.8524,55.45,93,75,4.47,broken clouds
658,Ugoofaaru,MV,5.6667,73.0,82.2,72,100,9.15,overcast clouds
659,Muyezerskiy,RU,63.9333,31.65,52.54,77,100,4.72,light rain
660,Mangrol,IN,21.1167,70.1167,80.85,76,12,8.01,few clouds
661,Oksbol,DK,55.6268,8.2876,54.91,65,45,21.63,light rain
662,Abu Samrah,SY,35.3029,37.1841,97.45,12,0,13.02,clear sky
663,Sampit,ID,-2.5333,112.95,76.57,94,74,1.88,broken clouds
664,Oktyabrskiy,RU,54.4815,53.471,69.1,68,39,6.31,scattered clouds
665,Praia,CV,14.9215,-23.5087,82.94,65,40,11.5,scattered clouds
666,San Roque,ES,36.2107,-5.3842,72.43,73,40,18.41,scattered clouds
667,Kambove,CD,-10.8764,26.5969,89.08,20,96,4.29,overcast clouds
668,Somerset East,ZA,-32.7217,25.588,56.37,82,100,12.64,light rain
669,Tripoli,LY,32.8752,13.1875,84.31,64,5,17.81,clear sky
670,Marsa Matruh,EG,31.3525,27.2453,79.48,60,0,12.55,clear sky
671,Vila,PT,42.0304,-8.1588,79.68,41,60,0.96,broken clouds
672,Fier,AL,40.7239,19.5561,73.56,43,0,12.53,clear sky
673,San Policarpo,PH,12.1791,125.5072,79.75,84,100,5.08,light rain
674,Espinosa,BR,-14.9261,-42.8192,78.37,48,32,12.28,scattered clouds
675,Beoumi,CI,7.6736,-5.5764,82.49,66,94,8.03,overcast clouds
676,Kirando,TZ,-7.4167,30.6,84.72,43,93,6.35,overcast clouds
677,Almeirim,BR,-1.5233,-52.5817,88.3,53,54,6.51,broken clouds
678,Bay Roberts,CA,47.5999,-53.2648,61.52,67,60,14.0,broken clouds
679,Zonguldak,TR,41.25,31.8333,70.65,72,3,8.68,clear sky
680,Wanaka,NZ,-44.7,169.15,41.97,90,100,5.48,moderate rain
681,Saint-Joseph,RE,-21.3667,55.6167,75.58,77,34,12.82,light rain
682,Mulege,MX,26.8833,-111.9833,82.96,60,1,0.85,clear sky
683,Onufriyivka,UA,48.9072,33.4487,74.97,59,93,20.24,light rain
684,Puerto Armuelles,PA,8.2833,-82.8667,75.18,93,100,9.78,overcast clouds
685,Northam,GB,51.0333,-4.2167,60.26,64,52,9.95,broken clouds
686,Poya,NC,-21.35,165.15,70.38,84,0,4.47,clear sky
687,Praia Da Vitoria,PT,38.7333,-27.0667,80.85,74,20,7.09,few clouds
688,Kutum,SD,14.2,24.6667,88.56,27,64,11.79,broken clouds
689,Dustlik,UZ,40.5247,68.0358,85.8,16,0,10.58,clear sky
690,Road Town,VG,18.4167,-64.6167,78.89,86,100,38.83,heavy intensity rain
691,Jaisalmer,IN,26.9147,70.9181,94.33,26,0,7.74,clear sky
692,Arroyo,ES,41.6096,-4.7969,84.6,29,20,1.14,few clouds
693,Ankang,CN,32.68,109.0172,72.05,93,100,1.79,overcast clouds
694,Zigong,CN,29.3416,104.7769,76.8,86,100,5.95,overcast clouds
695,Kovernino,RU,57.1253,43.8142,54.93,79,100,9.04,overcast clouds
696,Sacramento,US,38.4666,-121.3177,62.6,79,40,10.36,scattered clouds
697,Quatre Cocos,MU,-20.2078,57.7625,73.51,76,74,16.08,light rain
698,Avera,US,33.194,-82.5271,71.55,75,1,8.72,clear sky
699,Miandrivazo,MG,-19.5167,45.4667,92.82,20,16,1.99,few clouds
700,Tabuk,PH,17.4189,121.4443,74.61,95,100,3.31,heavy intensity rain
701,Rio Branco,BR,-9.9747,-67.81,84.81,61,96,10.36,overcast clouds
702,Toora-Khem,RU,52.4675,96.11,43.57,69,6,1.54,clear sky
703,Barra,BR,-11.0894,-43.1417,84.34,45,3,11.59,clear sky
704,Iralaya,HN,15.0,-83.2333,80.67,82,96,3.69,overcast clouds
705,Dalvik,IS,65.9702,-18.5286,55.33,65,67,2.13,broken clouds
706,Wynyard,AU,-41.0,145.7167,47.95,82,43,7.27,scattered clouds
707,Bradut,RO,46.1333,25.6167,54.25,82,97,16.73,overcast clouds
708,Carutapera,BR,-1.195,-46.02,85.3,62,100,9.51,overcast clouds
709,Tromso,NO,69.6496,18.957,50.38,71,100,16.11,overcast clouds
710,Sur,OM,22.5667,59.5289,90.19,59,0,4.63,clear sky
711,Leshan,CN,29.5623,103.7639,74.01,90,69,3.33,broken clouds
712,Comodoro Rivadavia,AR,-45.8667,-67.5,42.66,65,75,6.91,broken clouds
713,Iranshahr,IR,27.2025,60.6848,104.34,14,40,9.22,scattered clouds
714,Forrest City,US,35.0081,-90.7898,70.52,62,0,5.68,clear sky
715,Mangai,CD,-4.05,19.5333,69.33,96,100,2.53,light rain
716,Jinan,CN,36.6683,116.9972,70.14,54,100,9.37,overcast clouds
717,Redwater,US,33.3582,-94.2544,73.69,87,0,3.65,clear sky
718,Puerto Princesa,PH,9.7392,118.7353,79.48,86,100,3.18,overcast clouds
719,Lambarene,GA,-0.7001,10.2406,82.42,74,100,6.46,overcast clouds
720,Voskresenskoye,RU,56.8381,45.4317,54.21,80,100,7.61,overcast clouds
721,Darab,IR,28.7519,54.5444,92.55,14,9,17.29,clear sky
